[
  {
    "ville": "Paris",
    "pays": "FR",
    "date": "2025-07-16",
    "heure": "17:26:07",
    "temperature": 21.68,
    "humidite": 79,
    "pression": 1018,
    "vent_vitesse": 6.17,
    "description": "couvert",
    "lat": 48.8534,
    "lon": 2.3488
  },
  {
    "ville": "Londres",
    "pays": "GB",
    "date": "2025-07-16",
    "heure": "17:26:07",
    "temperature": 23.64,
    "humidite": 47,
    "pression": 1016,
    "vent_vitesse": 3.09,
    "description": "couvert",
    "lat": 51.5085,
    "lon": -0.1257
  },
  {
    "ville": "Préfecture de Tokyo",
    "pays": "JP",
    "date": "2025-07-16",
    "heure": "17:26:07",
    "temperature": 25.91,
    "humidite": 80,
    "pression": 1017,
    "vent_vitesse": 7.72,
    "description": "légère pluie",
    "lat": 35.6895,
    "lon": 139.6917
  },
  {
    "ville": "New York",
    "pays": "US",
    "date": "2025-07-16",
    "heure": "17:26:07",
    "temperature": 31.57,
    "humidite": 64,
    "pression": 1016,
    "vent_vitesse": 5.66,
    "description": "partiellement nuageux",
    "lat": 40.7143,
    "lon": -74.006
  },
  {
    "ville": "Berlin",
    "pays": "DE",
    "date": "2025-07-16",
    "heure": "17:26:08",
    "temperature": 19.19,
    "humidite": 77,
    "pression": 1009,
    "vent_vitesse": 1.54,
    "description": "ciel dégagé",
    "lat": 52.5244,
    "lon": 13.4105
  }
]